City_ID,City,Lat,Lng,Max Temp,Humidity,Cloudiness,Wind Speed,Country,Date
0,albany,42.6001,-73.9662,0.32,83,92,4.53,US,1674556380
1,yarmouth,41.7057,-70.2286,1.09,81,0,8.94,US,1674556382
2,bredasdorp,-34.5322,20.0403,18.23,58,63,8.45,ZA,1674556383
3,iqaluit,63.7506,-68.5145,-26.15,76,75,4.63,CA,1674556194
4,shimoda,34.6667,138.95,4.5,80,75,11.9,JP,1674556386
5,cayenne,4.9333,-52.3333,25.02,78,75,3.6,GF,1674556138
6,sinnamary,5.3833,-52.95,24.48,80,46,5.18,GF,1674556389
7,omsukchan,62.5333,155.8,-27.65,98,100,2.3,RU,1674556390
8,sitka,57.0531,-135.33,5.94,81,100,3.6,US,1674556334
9,avarua,-21.2078,-159.775,23.03,100,92,1.03,CK,1674556393
10,new norfolk,-42.7826,147.0587,18.73,64,83,0.56,AU,1674556394
11,nanortalik,60.1432,-45.2371,-0.73,85,100,2.89,GL,1674556396
12,atuona,-9.8,-139.0333,25.96,74,8,8.61,PF,1674556397
13,rikitea,-23.1203,-134.9692,25.65,79,5,8.23,PF,1674556398
14,makakilo city,21.3469,-158.0858,22.18,78,0,2.06,US,1674556400
15,grand gaube,-20.0064,57.6608,28.22,84,100,4.93,MU,1674556401
16,klaksvik,62.2266,-6.589,8.51,88,100,14.64,FO,1674556403
17,port alfred,-33.5906,26.891,22.88,74,64,3.58,ZA,1674556405
18,prattville,32.464,-86.4597,0.74,86,0,0.0,US,1674556359
19,upernavik,72.7868,-56.1549,-20.27,83,100,4.76,GL,1674556407
20,puerto escondido,15.85,-97.0667,23.69,70,0,1.48,MX,1674556409
21,cherskiy,68.75,161.3,-30.36,98,100,0.66,RU,1674556395
22,constitucion,-35.3333,-72.4167,16.54,93,76,2.08,CL,1674556411
23,kavieng,-2.5744,150.7967,27.84,77,82,4.04,PG,1674556414
24,yellowknife,62.456,-114.3525,-14.69,85,100,3.6,CA,1674556416
25,punta arenas,-53.15,-70.9167,6.06,70,20,6.69,CL,1674556418
26,oriximina,-1.7656,-55.8661,23.15,94,100,1.73,BR,1674556419
27,lebu,-37.6167,-73.65,13.84,89,54,4.53,CL,1674556420
28,provideniya,64.3833,-173.3,-21.06,87,2,5.13,RU,1674556421
29,vestmannaeyjar,63.4427,-20.2734,6.55,87,75,8.23,IS,1674556423
30,ponta do sol,32.6667,-17.1,18.73,61,9,2.84,PT,1674556424
31,hualmay,-11.0964,-77.6139,20.97,82,100,2.64,PE,1674556425
32,bud,39.447,-86.1758,0.01,90,97,3.12,US,1674556426
33,vidim,56.4088,103.1106,-20.77,100,100,1.34,RU,1674556428
34,mataura,-46.1927,168.8643,7.7,93,4,0.95,NZ,1674556429
35,mount isa,-20.7333,139.5,34.87,29,100,3.09,AU,1674556431
36,mackenzie,55.2999,-123.1698,-0.88,86,20,1.03,CA,1674556149
37,faanui,-16.4833,-151.75,26.38,71,100,3.94,PF,1674556434
38,kabo,7.6994,18.629,36.8,9,100,2.62,CF,1674556435
39,polyarnyy,69.1989,33.4478,-2.31,76,34,11.98,RU,1674556437
40,leeton,-34.5667,146.4,23.27,47,81,1.84,AU,1674556438
41,castro,-24.7911,-50.0119,19.42,84,16,0.74,BR,1674556439
42,hobart,-42.8794,147.3294,18.92,82,20,2.57,AU,1674556441
43,the pas,53.8251,-101.2541,-17.99,78,100,1.54,CA,1674556442
44,henties bay,-22.116,14.2845,19.65,76,100,5.77,NA,1674556444
45,busselton,-33.65,115.3333,20.51,68,0,9.88,AU,1674556445
46,bluff,-46.6,168.3333,11.81,73,4,4.53,NZ,1674556415
47,ushuaia,-54.8,-68.3,7.81,61,20,2.06,AR,1674556448
48,georgetown,5.4112,100.3354,28.96,89,40,3.09,MY,1674556210
49,pallasovka,50.05,46.8833,-1.44,55,4,2.04,RU,1674556450
50,qaanaaq,77.484,-69.3632,-24.68,66,29,2.57,GL,1674556452
51,charleston,32.7766,-79.9309,2.23,88,0,0.0,US,1674556201
52,kodiak,57.79,-152.4072,2.73,75,40,2.57,US,1674556455
53,severo-kurilsk,50.6789,156.125,-8.32,65,65,4.43,RU,1674556338
54,zyryanka,65.75,150.85,-30.55,96,100,0.48,RU,1674556458
55,paita,-5.0892,-81.1144,20.67,81,87,2.77,PE,1674556459
56,varhaug,58.6147,5.6457,6.75,98,100,3.71,NO,1674556275
57,lavrentiya,65.5833,-171.0,-26.31,95,23,4.88,RU,1674556464
58,ayan,56.45,138.1667,-28.43,79,100,3.48,RU,1674556334
59,tuktoyaktuk,69.4541,-133.0374,-22.6,98,100,4.04,CA,1674556467
60,saint-philippe,-21.3585,55.7679,25.77,88,100,4.58,RE,1674556468
61,codrington,-38.2667,141.9667,15.71,83,24,3.6,AU,1674556469
62,kurilsk,45.2333,147.8833,-3.51,70,100,5.04,RU,1674556471
63,tutoia,-2.7619,-42.2744,25.83,86,16,2.94,BR,1674556472
64,bethel,41.3712,-73.414,2.2,74,75,2.57,US,1674556473
65,oussouye,12.485,-16.5469,24.05,49,18,2.82,SN,1674556475
66,narsaq,60.9167,-46.05,-5.88,96,100,1.37,GL,1674556476
67,vaini,-21.2,-175.2,27.09,89,40,3.09,TO,1674556478
68,carballo,43.213,-8.691,10.42,76,25,5.56,ES,1674556479
69,tiksi,71.6872,128.8694,-31.93,100,100,1.8,RU,1674556480
70,abha,18.2164,42.5053,18.9,48,20,6.17,SA,1674556415
71,muisne,0.6,-80.0333,23.67,91,73,1.75,EC,1674556483
72,oyama,36.3,139.8,4.21,34,80,2.21,JP,1674556484
73,tasiilaq,65.6145,-37.6368,-6.91,62,96,2.94,GL,1674556485
74,arrifes,37.7667,-25.7,14.14,82,75,6.69,PT,1674556487
75,fuling,29.7022,107.3919,9.06,59,74,0.11,CN,1674556488
76,namatanai,-3.6667,152.4333,26.69,81,81,2.85,PG,1674556489
77,yumen,40.2833,97.2,-12.96,55,18,8.86,CN,1674556490
78,hilo,19.7297,-155.09,22.93,86,75,2.57,US,1674556207
79,antofagasta,-23.65,-70.4,18.6,84,47,2.82,CL,1674556314
80,luderitz,-26.6481,15.1594,23.87,50,34,10.8,NA,1674556494
81,coahuayana,18.7333,-103.6833,18.29,75,42,2.26,MX,1674556495
82,jamestown,42.097,-79.2353,-1.23,53,100,8.23,US,1674556497
83,portland,45.5234,-122.6762,5.61,89,100,2.06,US,1674555927
84,jalu,29.0331,21.5482,19.46,30,0,5.29,LY,1674556499
85,fremont,37.5483,-121.9886,11.57,65,0,2.57,US,1674556263
86,rong kwang,18.339,100.3174,30.71,38,0,2.33,TH,1674556502
87,vila velha,-20.3297,-40.2925,22.97,98,75,1.54,BR,1674556503
88,khatanga,71.9667,102.5,-38.94,96,80,2.86,RU,1674556505
89,sao joao da barra,-21.6403,-41.0511,25.05,90,100,2.87,BR,1674556506
90,nara,34.6851,135.8049,-0.02,61,71,8.8,JP,1674556507
91,ghanzi,-21.5667,21.7833,31.22,32,42,3.23,BW,1674556509
92,nuuk,64.1835,-51.7216,-1.66,93,100,13.38,GL,1674556510
93,skjervoy,70.0311,20.9714,1.0,77,100,19.25,NO,1674556511
94,chongwe,-15.3292,28.682,24.16,72,86,4.74,ZM,1674556514
95,isangel,-19.55,169.2667,27.09,86,99,2.54,VU,1674556515
96,cape town,-33.9258,18.4232,21.32,47,75,6.69,ZA,1674556058
97,tubuala,9.5167,-79.0333,26.3,86,81,5.62,PA,1674556518
98,bereda,43.2686,-7.5406,5.64,96,70,3.15,ES,1674556519
99,vila franca do campo,37.7167,-25.4333,15.23,83,69,5.65,PT,1674556521
100,ancud,-41.8697,-73.8203,11.8,79,20,2.04,CL,1674556344
101,fort nelson,58.8053,-122.7002,-8.23,86,100,2.57,CA,1674556523
102,inuvik,68.3499,-133.7218,-21.52,77,100,1.03,CA,1674556525
103,lompoc,34.6391,-120.4579,10.51,80,0,3.09,US,1674556376
104,riyadh,24.6877,46.7219,18.08,48,57,5.11,SA,1674556392
105,vanimo,-2.6741,141.3028,24.19,94,100,0.96,PG,1674556529
106,acapulco,16.8634,-99.8901,20.9,78,0,1.03,MX,1674556397
107,rawson,-43.3002,-65.1023,21.16,49,0,12.35,AR,1674556533
108,otradnoye,59.7775,30.8181,-1.97,89,100,5.12,RU,1674556534
109,broken hill,-31.95,141.4333,26.57,36,55,10.14,AU,1674556348
110,arraial do cabo,-22.9661,-42.0278,23.98,94,75,2.57,BR,1674556450
111,mianwali,32.5741,71.5264,17.12,35,4,4.89,PK,1674556538
112,isiolo,0.3546,37.5822,27.79,42,100,4.43,KE,1674556540
113,ouro preto do oeste,-10.7481,-62.2158,21.97,98,100,1.5,BR,1674556541
114,athenry,53.2964,-8.7431,8.82,93,100,2.42,IE,1674556543
115,khandyga,62.6667,135.6,-49.3,100,52,1.08,RU,1674556544
116,saskylakh,71.9167,114.0833,-23.17,99,100,1.63,RU,1674556545
117,hermanus,-34.4187,19.2345,19.33,63,90,8.54,ZA,1674556547
118,talnakh,69.4865,88.3972,-30.61,94,56,3.89,RU,1674556548
119,kapaa,22.0752,-159.319,21.18,83,0,3.09,US,1674556333
120,weligama,5.9667,80.4167,25.47,85,99,1.03,LK,1674556550
121,xiazhen,34.8022,117.1117,-6.98,23,0,2.56,CN,1674556553
122,victor harbor,-35.5667,138.6167,17.22,82,12,4.95,AU,1674556554
123,nautla,20.2167,-96.7833,20.21,87,91,1.29,MX,1674556557
124,melbu,68.5044,14.8297,2.9,70,75,11.32,NO,1674556558
125,camacha,33.0833,-16.3333,14.68,63,75,5.66,PT,1674556559
126,aguimes,27.9054,-15.4461,17.59,59,40,7.2,ES,1674556561
127,port elizabeth,-33.918,25.5701,24.62,69,75,9.83,ZA,1674556562
128,indramayu,-6.3264,108.32,26.97,84,98,5.87,ID,1674556563
129,altay,47.8667,88.1167,-15.68,96,100,0.92,CN,1674556565
130,butaritari,3.0707,172.7902,27.27,80,98,8.13,KI,1674556566
131,leningradskiy,69.3833,178.4167,-30.94,92,19,3.96,RU,1674556568
132,dikson,73.5069,80.5464,-20.67,95,100,15.99,RU,1674556569
133,ban nahin,18.2418,104.2122,16.51,52,3,3.39,LA,1674556572
134,clyde river,70.4692,-68.5914,-29.87,76,100,5.14,CA,1674556354
135,gigmoto,13.7796,124.39,24.71,88,9,6.18,PH,1674556574
136,barrow,71.2906,-156.7887,-20.99,77,100,10.8,US,1674556576
137,shar,49.5886,81.0453,-12.68,97,97,2.18,KZ,1674556577
138,mahebourg,-20.4081,57.7,28.16,65,75,4.12,MU,1674556579
139,kavaratti,10.5669,72.642,26.5,74,91,5.9,IN,1674556580
140,sorland,67.667,12.6934,3.92,67,98,11.05,NO,1674556581
141,emet,39.343,29.2585,10.54,52,33,1.89,TR,1674556583
142,prince rupert,54.3161,-130.3201,6.83,93,100,4.12,CA,1674556584
143,maniitsoq,65.4167,-52.9,-4.31,94,100,0.13,GL,1674556585
144,waingapu,-9.6567,120.2641,26.92,77,99,1.58,ID,1674556587
145,mandalgovi,45.7625,106.2708,-20.58,75,98,2.08,MN,1674556588
146,jodhpur,26.2867,73.03,22.52,27,0,3.24,IN,1674556589
147,solnechnyy,50.7214,136.6319,-34.66,96,90,1.71,RU,1674556590
148,tabasalu,59.4303,24.5331,1.73,100,100,6.71,EE,1674556592
149,lerwick,60.1545,-1.1494,10.0,96,100,10.96,GB,1674556593
150,sehithwa,-20.4667,22.7167,32.87,29,27,3.63,BW,1674556594
151,alta floresta,-9.8756,-56.0861,21.47,99,100,1.2,BR,1674556596
152,lenger,42.183,69.8839,-5.31,89,67,0.67,KZ,1674556597
153,bengkulu,-3.8004,102.2655,24.19,93,100,5.02,ID,1674556598
154,faya,18.3851,42.4509,19.06,56,17,4.7,SA,1674556600
155,avera,33.194,-82.5271,-2.27,75,0,1.28,US,1674556601
156,seminole,28.7086,-81.2081,11.3,85,0,3.6,US,1674556304
157,anapskaya,44.89,37.38,10.13,53,0,3.0,RU,1674556604
158,yashkul,46.1711,45.3435,4.02,37,0,7.23,RU,1674556605
159,seddon,-37.8068,144.8916,22.08,71,0,3.6,AU,1674556607
160,krasnoselkup,65.7,82.4667,-31.93,97,12,2.87,RU,1674556610
161,berlevag,70.8578,29.0864,1.0,86,40,16.46,NO,1674556611
162,dillon,34.4166,-79.3712,-0.81,72,0,1.16,US,1674556613
163,shanhetun,44.7,127.2,-26.56,87,68,2.83,CN,1674556614
164,buala,-8.145,159.5921,26.0,83,100,0.82,SB,1674556615
165,kaitangata,-46.2817,169.8464,10.82,85,13,2.97,NZ,1674556617
166,almaznyy,48.0448,40.045,1.58,51,7,6.84,RU,1674556618
167,lilongwe,-13.9669,33.7873,23.11,73,75,4.12,MW,1674556619
168,nikolskoye,59.7035,30.7861,-2.06,89,100,5.02,RU,1674556621
169,wajir,1.7471,40.0573,33.98,33,40,1.54,KE,1674556622
170,oranjemund,-28.55,16.4333,22.12,58,3,6.81,NA,1674556624
171,port hardy,50.6996,-127.4199,5.1,100,100,3.6,CA,1674556625
172,tocache,-8.1842,-76.5125,18.95,97,97,0.23,PE,1674556627
173,mar del plata,-38.0023,-57.5575,19.41,83,0,5.36,AR,1674556629
174,thompson,55.7435,-97.8558,-34.91,75,0,0.0,CA,1674556631
175,yzeure,46.5644,3.355,2.55,78,100,1.1,FR,1674556632
176,puerto asis,0.5133,-76.5007,20.23,99,100,0.75,CO,1674556634
177,mersing,2.4312,103.8405,21.95,100,40,4.12,MY,1674556636
178,mount gambier,-37.8333,140.7667,13.32,89,26,2.5,AU,1674556638
179,kulhudhuffushi,6.6221,73.07,25.2,76,100,0.89,MV,1674556639
180,lorengau,-2.0226,147.2712,26.03,82,100,1.58,PG,1674556641
181,buchanan,5.8808,-10.0467,28.87,67,89,1.91,LR,1674556643
182,horqueta,-23.3428,-57.0597,24.81,81,100,1.84,PY,1674556644
183,buraydah,26.326,43.975,18.25,43,85,5.12,SA,1674556378
184,karratha,-20.7377,116.8463,29.31,68,65,4.13,AU,1674556648
185,labuan,5.2767,115.2417,27.2,83,40,6.26,MY,1674556649
186,invermere,50.5167,-116.0354,-14.63,98,87,0.3,CA,1674556509
187,ternate,0.8,127.4,26.88,81,100,3.16,ID,1674556652
188,longyearbyen,78.2186,15.6401,-3.09,86,75,9.77,SJ,1674556653
189,manaquiri,-3.3167,-60.35,25.25,96,95,0.86,BR,1674556654
190,saint george,37.1041,-113.5841,1.33,65,0,1.54,US,1674556494
191,nyurba,63.2842,118.3319,-29.04,99,100,0.71,RU,1674556657
192,komsomolskiy,40.4272,71.7189,0.4,47,10,1.03,UZ,1674556659
193,rio gallegos,-51.6226,-69.2181,7.03,61,0,3.6,AR,1674556661
194,isla mujeres,21.2311,-86.731,23.03,80,8,6.46,MX,1674556662
195,koutiala,12.3917,-5.4642,33.95,14,36,3.42,ML,1674556663
196,katsuura,35.1333,140.3,5.53,52,79,10.08,JP,1674556458
197,rusape,-18.5278,32.1284,23.46,64,94,1.61,ZW,1674556666
198,petropavlovsk-kamchatskiy,53.0452,158.6483,-17.67,66,20,4.0,RU,1674556667
199,zhangye,38.9342,100.4517,-12.36,54,15,1.06,CN,1674556668
200,hofn,64.2539,-15.2082,4.96,97,100,3.39,IS,1674556671
201,hambantota,6.1241,81.1185,29.19,84,75,1.54,LK,1674556672
202,puerto del rosario,28.5004,-13.8627,17.86,63,40,8.23,ES,1674556674
203,carroll,39.5501,-77.0164,1.7,68,47,3.13,US,1674556383
204,nabire,-3.3667,135.4833,25.02,90,100,1.58,ID,1674556677
205,quelimane,-17.8786,36.8883,31.97,62,75,7.72,MZ,1674556678
206,asau,46.4333,26.4,-0.4,69,97,2.62,RO,1674556680
207,hithadhoo,-0.6,73.0833,27.19,76,76,6.78,MV,1674556681
208,margate,51.3813,1.3862,5.5,81,90,1.79,GB,1674556683
209,ati,13.2154,18.3353,33.2,7,99,3.97,TD,1674556684
210,natchitoches,31.7668,-93.1335,6.47,81,40,1.54,US,1674556686
211,arlit,18.7369,7.3853,31.81,7,2,3.62,NE,1674556687
212,saint-augustin,51.226,-58.6502,-1.2,94,100,10.41,CA,1674556689
213,palmer,42.1584,-72.3287,0.78,79,100,3.09,US,1674556648
214,monywa,22.1167,95.1333,25.88,28,68,1.92,MM,1674556692
215,namibe,-15.1961,12.1522,24.84,77,88,3.91,AO,1674556693
216,chokurdakh,70.6333,147.9167,-30.42,92,100,0.7,RU,1674556695
217,qianan,44.9932,124.0581,-18.68,43,0,3.89,CN,1674556696
218,pedernales,18.0384,-71.744,23.13,46,28,2.0,DO,1674556697
219,jumla,29.2747,82.1838,5.97,96,100,2.23,NP,1674556699
220,teya,60.3778,92.6267,-25.3,100,98,1.26,RU,1674556700
221,gamba,-2.65,10.0,28.64,68,74,3.36,GA,1674556702
222,otjimbingwe,-22.35,16.1333,29.14,40,97,2.28,NA,1674556703
223,hay river,60.8156,-115.7999,-11.01,85,100,1.54,CA,1674556705
224,airai,-8.9266,125.4092,16.88,94,100,0.49,TL,1674556706
225,dingle,10.9995,122.6711,23.72,84,46,5.16,PH,1674556708
226,saquarema,-22.92,-42.5103,24.08,91,100,1.51,BR,1674556709
227,zhigansk,66.7697,123.3711,-45.57,97,100,4.12,RU,1674556711
228,puerto ayora,-0.7393,-90.3518,21.97,97,77,1.39,EC,1674556712
229,alghero,40.5589,8.3181,11.05,71,20,1.54,IT,1674556714
230,ilulissat,69.2167,-51.1,-4.99,58,75,10.8,GL,1674556716
231,san carlos de bariloche,-41.1456,-71.3082,8.86,76,40,9.26,AR,1674556717
232,yokadouma,3.5167,15.05,37.19,14,44,0.76,CM,1674556718
233,colac,-38.3333,143.5833,17.13,90,31,2.87,AU,1674556719
234,miraflores,19.2167,-98.8083,12.24,77,3,1.7,MX,1674556721
235,norman wells,65.282,-126.8329,-23.98,84,100,0.0,CA,1674556722
236,mut,36.6439,33.4389,16.49,31,0,1.85,TR,1674556724
237,loukhi,66.0764,33.0381,-3.01,91,47,3.79,RU,1674556725
238,chuy,-33.6971,-53.4616,20.19,65,0,2.14,UY,1674556727
239,medicine hat,50.0501,-110.6683,0.68,65,100,6.17,CA,1674556681
240,smithers,54.7804,-127.1743,-0.82,93,100,1.03,CA,1674556511
241,port blair,11.6667,92.75,29.02,51,20,4.12,IN,1674556731
242,arkhangelskoye,55.8549,35.3287,-2.42,87,100,3.31,RU,1674556733
243,itarema,-2.9248,-39.9167,26.54,75,49,2.06,BR,1674556734
244,salvador,13.8333,-88.9167,18.36,85,9,1.53,SV,1674556735
245,sawtell,-30.3833,153.1,23.99,94,100,4.63,AU,1674556737
246,fairbanks,64.8378,-147.7164,-20.22,79,100,1.54,US,1674556490
247,magdagachi,53.45,125.8,-34.5,98,73,0.79,RU,1674556739
248,san pedro,14.35,121.0167,28.57,66,40,6.17,PH,1674556741
249,chifeng,42.2683,118.9636,-18.74,57,1,2.9,CN,1674556743
250,aksarka,66.5606,67.7975,-8.61,87,86,5.59,RU,1674556744
251,lagoa,39.05,-27.9833,15.49,75,99,7.41,PT,1674556746
252,fort-shevchenko,44.5086,50.263,3.61,35,67,5.19,KZ,1674556748
253,salalah,17.0151,54.0924,25.05,57,40,5.66,OM,1674556752
254,san patricio,28.017,-97.5169,19.92,93,100,7.14,US,1674556754
255,mandera,3.9366,41.867,35.37,23,54,5.48,KE,1674556755
256,isiro,2.7739,27.616,33.96,20,98,1.36,CD,1674556756
257,labuhan,-6.8844,112.2051,26.87,83,92,3.76,ID,1674556758
258,bonthe,7.5264,-12.505,29.81,62,53,0.15,SL,1674556759
259,kloulklubed,7.0419,134.2556,24.28,83,100,6.52,PW,1674556761
260,mastic beach,40.7668,-72.8521,2.77,71,100,4.12,US,1674556762
261,flin flon,54.7682,-101.865,-27.4,100,94,1.53,CA,1674556764
262,semnan,35.5729,53.3971,4.73,28,0,0.8,IR,1674556766
263,salamiyah,35.0113,37.0532,15.35,49,0,1.53,SY,1674556767
264,noumea,-22.2763,166.4572,28.33,99,32,1.13,NC,1674556262
265,bijie,27.3125,105.2942,1.37,65,98,7.08,CN,1674556754
266,dobrovat,46.95,27.7,0.18,73,99,4.34,RO,1674556771
267,port augusta,-32.5,137.7667,21.81,70,0,8.1,AU,1674556772
268,xining,36.6167,101.7667,-6.08,13,0,1.12,CN,1674556774
269,catuday,16.2923,119.8062,24.49,80,14,13.48,PH,1674556776
270,kargasok,59.0556,80.8572,-28.24,96,6,3.14,RU,1674556777
271,bambous virieux,-20.3428,57.7575,28.14,65,75,4.12,MU,1674556779
272,tabuk,17.4189,121.4443,19.87,92,57,7.83,PH,1674556464
273,khandbari,27.3747,87.2039,19.15,41,15,1.98,NP,1674556781
274,tabou,4.423,-7.3528,29.34,67,70,2.38,CI,1674556782
275,fortuna,40.5982,-124.1573,3.51,100,0,3.6,US,1674556783
276,vrangel,42.7297,133.0839,-20.08,76,32,7.83,RU,1674556785
277,porto santo,33.072,-16.3415,16.21,63,75,5.66,PT,1674556786
278,cairns,-16.9167,145.7667,26.97,90,40,1.54,AU,1674556787
279,emerald,-23.5333,148.1667,26.86,65,8,6.93,AU,1674556789
280,takoradi,4.8845,-1.7554,29.68,65,7,2.81,GH,1674556791
281,manacapuru,-3.2997,-60.6206,23.36,93,99,1.46,BR,1674556571
282,nchelenge,-9.3451,28.734,25.77,59,76,2.73,ZM,1674556794
283,victoria,22.2855,114.1577,16.03,40,10,5.36,HK,1674556521
284,sabha,27.0377,14.4283,22.79,12,0,6.19,LY,1674556797
285,awjilah,29.1081,21.2869,19.39,30,0,5.56,LY,1674556798
286,san andres,12.5847,-81.7006,27.01,78,20,7.72,CO,1674556800
287,roald,62.5833,6.1333,9.39,81,75,5.66,NO,1674556801
288,longuenesse,50.734,2.2352,2.2,82,14,4.53,FR,1674556803
289,lakselv,70.0513,24.9718,0.9,69,20,18.01,NO,1674556804
290,zaraza,9.3503,-65.3245,21.19,86,96,1.88,VE,1674556805
291,dawei,14.0833,98.2,28.81,41,5,1.07,MM,1674556607
292,ewa beach,21.3156,-158.0072,22.97,79,0,2.06,US,1674556808
293,rovaniemi,66.5,25.7167,-4.33,93,0,2.06,FI,1674556771
294,vardo,70.3705,31.1107,-2.01,74,0,12.35,NO,1674556810
295,saint-leu,-21.15,55.2833,25.48,89,100,1.58,RE,1674556812
296,san quintin,30.4833,-115.95,10.87,42,0,2.43,MX,1674556813
297,raahe,64.6833,24.4833,-0.95,98,29,3.6,FI,1674556814
298,cadillac,44.2519,-85.4012,-3.45,93,100,3.09,US,1674556763
299,ambulu,-8.345,113.6058,26.3,83,75,0.88,ID,1674556818
300,evensk,61.95,159.2333,-13.2,87,100,9.26,RU,1674556819
301,vadinsk,53.6916,43.0574,-5.63,87,78,3.35,RU,1674556820
302,pisco,-13.7,-76.2167,20.03,88,91,4.12,PE,1674556528
303,ratnagiri,16.9833,73.3,24.06,66,3,6.57,IN,1674556823
304,guerrero negro,27.9769,-114.0611,10.42,42,21,1.9,MX,1674556824
305,oltu,40.5498,42.0013,4.83,29,5,1.84,TR,1674556825
306,aklavik,68.2191,-135.0107,-22.42,97,100,4.47,CA,1674556827
307,boa vista,2.8197,-60.6733,21.99,88,0,1.54,BR,1674556828
308,taoudenni,22.6783,-3.9836,22.7,15,0,3.11,ML,1674556829
309,baghdad,33.3406,44.4009,18.13,24,0,3.69,IQ,1674556831
310,gboko,7.3179,8.9951,34.67,21,17,2.08,NG,1674556832
311,sribne,50.6638,32.9187,0.94,55,4,4.02,UA,1674556833
312,carnarvon,-24.8667,113.6333,24.91,77,2,9.44,AU,1674556836
313,issoudun,47.0,1.8333,2.36,87,100,5.66,FR,1674556837
314,ribeira grande,38.5167,-28.7,15.99,88,75,8.23,PT,1674556838
315,casillas,14.4222,-90.2442,15.68,87,9,2.44,GT,1674556840
316,maturin,9.75,-63.1767,19.82,99,70,1.58,VE,1674556841
317,east london,-33.0153,27.9116,26.52,61,0,10.8,ZA,1674556842
318,rio grande,-32.035,-52.0986,25.06,60,0,1.94,BR,1674556844
319,tynda,55.1667,124.7167,-33.1,97,100,1.2,RU,1674556845
320,mikuni,36.2171,136.1519,-4.05,87,100,14.5,JP,1674556846
321,saldanha,-33.0117,17.9442,22.03,65,86,7.96,ZA,1674556848
322,salinopolis,-0.6136,-47.3561,25.53,86,100,4.33,BR,1674556849
323,barreiras,-12.1528,-44.99,23.85,85,50,0.29,BR,1674556850
324,roebourne,-20.7833,117.1333,29.42,69,51,4.63,AU,1674556852
325,magadan,59.5667,150.8,-23.04,74,100,5.64,RU,1674556853
326,christchurch,-43.5333,172.6333,15.18,83,100,4.63,NZ,1674556855
327,lumeje,-11.55,20.7833,25.34,55,100,4.32,AO,1674556857
328,acara,-1.9608,-48.1967,23.44,97,92,1.12,BR,1674556858
329,magnitka,55.3475,59.6961,-8.3,95,95,1.69,RU,1674556859
330,samarai,-10.6167,150.6667,28.4,78,100,5.73,PG,1674556861
331,kruisfontein,-34.0033,24.7314,22.16,44,88,9.95,ZA,1674556863
332,damara,4.9608,18.7035,37.88,9,45,3.65,CF,1674556864
333,ramanathapuram,9.3833,78.8333,27.14,62,100,7.42,IN,1674556867
334,port lincoln,-34.7333,135.8667,16.34,80,0,6.98,AU,1674556870
335,moshny,49.5147,31.7476,1.74,67,73,2.85,UA,1674556871
336,yerbogachen,61.2767,108.0108,-40.63,100,75,0.42,RU,1674556872
337,zitacuaro,19.4372,-100.358,6.52,97,30,1.23,MX,1674556873
338,chapais,49.7834,-74.8492,-6.12,92,100,5.41,CA,1674556875
339,lashio,22.9333,97.75,19.18,33,50,0.61,MM,1674556876
340,cascais,38.6979,-9.4215,10.65,49,0,9.83,PT,1674556877
341,mayumba,-3.432,10.6554,26.95,77,97,1.34,GA,1674556879
342,bronnoysund,65.4625,12.1997,2.0,87,75,2.24,NO,1674556738
343,kolobrzeg,54.1757,15.5834,3.97,74,19,1.47,PL,1674556882
344,conceicao do araguaia,-8.2578,-49.2647,23.88,90,38,1.12,BR,1674556883
345,mirnyy,62.5353,113.9611,-30.09,94,100,1.93,RU,1674556885
346,hovd,48.0056,91.6419,-19.81,75,100,0.78,MN,1674556886
347,kudahuvadhoo,2.6708,72.8944,26.07,81,94,7.51,MV,1674556887
348,husavik,66.0449,-17.3389,2.33,87,82,4.08,IS,1674556889
349,worland,44.0169,-107.9554,-4.36,90,100,2.06,US,1674556891
350,sao filipe,14.8961,-24.4956,21.35,64,8,2.26,CV,1674556893
351,laje,-10.1833,-40.9667,24.8,68,23,1.54,BR,1674556894
352,brae,60.3964,-1.353,9.32,97,100,10.96,GB,1674556896
353,inhambane,-23.865,35.3833,31.01,53,100,6.12,MZ,1674556898
354,tornio,65.8481,24.1466,-4.99,98,78,1.49,FI,1674556900
355,baykit,61.67,96.37,-35.81,98,50,1.49,RU,1674556901
356,hervey bay,-25.2986,152.8535,26.68,77,0,2.68,AU,1674556904
357,borogontsy,62.6683,131.1683,-40.16,97,100,1.88,RU,1674556905
358,half moon bay,37.4636,-122.4286,12.08,54,0,2.57,US,1674556649
359,rafiganj,24.8167,84.65,27.08,29,2,3.29,IN,1674556908
360,hasaki,35.7333,140.8333,2.22,97,65,10.93,JP,1674556909
361,banda aceh,5.5577,95.3222,24.31,87,94,6.57,ID,1674556910
362,dauphin,51.1494,-100.0502,-11.92,85,75,2.57,CA,1674556780
363,singaparna,-7.3515,108.111,24.66,86,91,0.59,ID,1674556913
364,tadine,-21.55,167.8833,26.65,84,91,1.86,NC,1674556915
365,pontianak,-0.0333,109.3333,27.99,78,40,2.57,ID,1674556781
366,rondonopolis,-16.4708,-54.6356,22.14,98,100,1.17,BR,1674556918
367,preobrazheniye,42.9019,133.9064,-21.87,69,13,4.23,RU,1674556919
368,tarko-sale,64.9225,77.785,-30.37,96,83,4.25,RU,1674556922
369,tautira,-17.7333,-149.15,26.11,81,97,4.64,PF,1674556923
370,nacala,-14.5428,40.6728,32.62,58,75,6.69,MZ,1674556924
371,dano,11.15,-3.0667,33.87,15,11,2.97,BF,1674556927
372,banyo,6.75,11.8167,31.9,13,73,3.12,CM,1674556928
373,acarau,-2.8856,-40.12,26.39,76,26,2.43,BR,1674556639
374,saint anthony,45.0205,-93.218,-5.04,89,0,3.09,US,1674556931
375,bilibino,68.0546,166.4372,-26.4,72,97,1.92,RU,1674556933
376,beaufort,5.3473,115.7455,24.25,95,100,2.74,MY,1674556934
377,esperance,-33.8667,121.9,24.13,58,18,7.87,AU,1674556936
378,duma,34.7653,108.135,-7.36,21,2,2.88,CN,1674556938
379,kamaishi,39.2667,141.8833,-4.57,60,100,3.79,JP,1674556939
380,hirara,24.8,125.2833,11.15,58,75,16.46,JP,1674556941
381,pangody,65.85,74.4859,-21.34,98,100,7.19,RU,1674556942
382,college,64.8569,-147.8028,-20.23,79,100,1.54,US,1674556681
383,bad laasphe,50.9333,8.4,0.44,81,63,3.32,DE,1674556945
384,la libertad,-2.2333,-80.9,24.28,79,87,3.95,EC,1674556946
385,flinders,-34.5833,150.8552,19.1,83,98,3.27,AU,1674556947
386,mogwase,-25.185,27.2665,31.82,20,1,0.86,ZA,1674556948
387,shelburne,44.0787,-80.2041,-1.75,97,91,7.71,CA,1674556912
388,namtsy,62.7161,129.6658,-40.65,97,100,1.1,RU,1674556951
389,palana,59.1167,159.9667,-16.12,92,100,2.02,RU,1674556952
390,tevaitoa,-16.7833,-151.5,25.81,77,100,2.74,PF,1674556954
391,pombia,45.653,8.6336,10.05,69,40,3.09,IT,1674556955
392,ballina,-28.8667,153.5667,22.79,99,88,6.06,AU,1674556956
393,hamilton,39.1834,-84.5333,-0.38,91,0,4.12,US,1674556957
394,ouidah,6.3631,2.0851,30.92,67,24,3.67,BJ,1674556960
395,egvekinot,66.3167,-179.1667,-26.32,87,11,5.91,RU,1674556961
396,caravelas,-17.7125,-39.2481,27.62,73,100,4.54,BR,1674556962
397,praia,14.9215,-23.5087,22.3,64,40,5.66,CV,1674556964
398,colesberg,-30.72,25.0972,31.16,22,49,8.07,ZA,1674556965
399,novoagansk,61.9449,76.6625,-31.12,98,77,1.45,RU,1674556966
400,tezu,27.9167,96.1667,19.65,38,53,1.39,IN,1674556968
401,petit goave,18.4314,-72.8669,22.77,72,4,1.91,HT,1674556969
402,ucluelet,48.9329,-125.5528,7.27,92,100,0.49,CA,1674556970
403,arroyo,41.6096,-4.7969,3.11,82,75,2.57,ES,1674556972
404,praia da vitoria,38.7333,-27.0667,15.42,82,40,8.02,PT,1674556973
405,te anau,-45.4167,167.7167,11.57,77,49,1.13,NZ,1674556974
406,togur,58.3631,82.8265,-26.44,96,21,3.0,RU,1674556976
407,tilichiki,60.4667,166.1,-17.04,85,100,4.99,RU,1674556977
408,mapastepec,15.4333,-92.9,21.91,68,3,1.86,MX,1674556978
409,hit,33.6416,42.8251,16.83,25,0,3.08,IQ,1674556979
410,thinadhoo,0.5333,72.9333,27.15,76,100,7.3,MV,1674556981
411,tuatapere,-46.1333,167.6833,9.01,88,1,1.18,NZ,1674556982
412,ullapool,57.8987,-5.1604,13.53,95,100,4.83,GB,1674556983
413,muros,42.7762,-9.0603,11.16,62,4,7.14,ES,1674556985
414,lichuan,30.3,108.85,-1.76,79,81,1.9,CN,1674556986
415,pristen,51.2355,36.6959,0.46,46,59,3.15,RU,1674556987
416,yazd,31.8972,54.3675,6.06,39,20,3.09,IR,1674556988
417,genhe,50.7833,121.5167,-37.16,100,74,1.49,CN,1674556990
418,kenai,60.5544,-151.2583,0.05,97,100,1.54,US,1674556991
419,amapa,1.0,-52.0,21.56,98,100,0.98,BR,1674556993
420,sosnogorsk,63.6023,53.8817,-10.12,90,84,3.6,RU,1674556994
421,san lorenzo,-25.3333,-57.5333,22.55,100,0,1.03,PY,1674556995
422,perth,-31.9333,115.8333,29.55,62,0,8.75,AU,1674556697
423,camrose,53.0168,-112.8353,-5.26,93,77,3.95,CA,1674556998
424,west wendover,40.7391,-114.0733,-4.44,80,0,1.54,US,1674556999
425,oxford,51.7522,-1.256,2.62,88,5,0.51,GB,1674556765
426,nouadhibou,20.931,-17.0347,16.99,63,0,9.26,MR,1674557002
427,byron bay,-28.65,153.6167,22.75,84,87,5.77,AU,1674557003
428,manado,1.487,124.8455,26.43,94,40,0.51,ID,1674557004
429,road town,18.4167,-64.6167,25.05,65,51,8.48,VG,1674557002
430,manzanillo,20.3433,-77.1167,19.99,89,5,4.22,CU,1674557007
431,el tarra,8.5756,-73.0949,21.79,92,85,0.55,CO,1674557008
432,sorong,-0.8833,131.25,27.22,78,100,2.55,ID,1674556862
433,cabo san lucas,22.8909,-109.9124,16.45,76,94,2.78,MX,1674556757
434,arcangel,11.5395,122.3455,23.84,94,63,0.89,PH,1674557012
435,mitzic,0.7821,11.549,29.4,56,74,1.05,GA,1674557013
436,pevek,69.7008,170.3133,-25.98,73,82,1.16,RU,1674557014
437,palivere,58.9664,23.8911,0.96,91,100,3.85,EE,1674557016
438,mesesenii de jos,47.15,22.9833,6.82,55,84,2.5,RO,1674557017
439,cidreira,-30.1811,-50.2056,24.27,80,2,1.88,BR,1674557018
440,dalvik,65.9702,-18.5286,4.96,92,87,4.12,IS,1674557020
441,anantapur,14.6833,77.6,30.56,32,49,5.35,IN,1674557022
442,zhanaozen,43.3,52.8,2.69,20,91,4.1,KZ,1674557023
443,aden,12.7794,45.0367,25.53,60,60,6.86,YE,1674557025
444,sur,22.5667,59.5289,20.78,46,20,5.45,OM,1674557026
445,harper,4.375,-7.7169,29.42,67,40,2.63,LR,1674556796
446,elliot lake,46.3834,-82.6331,-11.15,96,65,2.24,CA,1674557029
447,esil,51.9556,66.4042,-15.3,98,75,1.72,KZ,1674557030
448,ko samui,9.5357,99.9357,29.95,74,20,1.54,TH,1674556952
449,montelimar,44.5584,4.7509,4.86,64,43,5.87,FR,1674557032
450,mayo,38.8876,-76.5119,3.33,77,0,2.06,US,1674557024
451,vila,42.0304,-8.1588,4.49,77,4,3.19,PT,1674557035
452,san ramon,37.7799,-121.978,11.25,66,0,2.57,US,1674556841
453,hami,42.8,93.45,-8.3,22,2,0.93,CN,1674557039
454,brigantine,39.4101,-74.3646,2.79,78,0,4.63,US,1674557040
455,voi,-3.3945,38.563,30.35,45,99,4.75,KE,1674557041
456,bonavista,48.6499,-53.1147,4.09,97,100,17.38,CA,1674557043
457,bontang,0.1333,117.5,26.57,86,94,3.09,ID,1674557044
458,los llanos de aridane,28.6585,-17.9182,16.86,71,40,3.6,ES,1674557045
459,bushehr,28.9684,50.8385,18.05,68,75,4.12,IR,1674557046
460,kindu,-2.95,25.95,25.42,75,100,1.29,CD,1674557048
461,cozumel,20.5083,-86.9458,22.19,94,0,0.0,MX,1674556763
462,semey,50.4111,80.2275,-6.88,86,75,3.0,KZ,1674556856
463,sendreni,45.4,27.9167,4.23,62,100,5.51,RO,1674557051
464,troitskoye,52.9821,84.6757,-10.36,93,100,6.14,RU,1674557053
465,bazarnyye mataki,54.8833,49.9333,-10.12,94,100,2.07,RU,1674557054
466,booue,-0.0921,11.9385,33.58,45,72,1.03,GA,1674557055
467,maragogi,-9.0122,-35.2225,27.55,65,13,3.12,BR,1674557056
468,palencia,42.4167,-4.5,2.11,79,84,6.1,ES,1674557058
469,cullinan,-25.6709,28.5236,31.01,21,0,1.62,ZA,1674557060
470,poum,-20.2333,164.0167,27.49,78,65,2.36,NC,1674557062
471,khorramshahr,30.4397,48.1664,12.97,100,100,2.06,IR,1674557063
472,altoona,40.5187,-78.3947,0.12,76,93,1.34,US,1674557065
473,burnie,-41.0667,145.9167,16.07,87,4,1.86,AU,1674557067
474,kanniyakumari,8.0833,77.5667,27.22,72,100,6.93,IN,1674557069
475,nador,35.174,-2.9287,12.14,58,40,2.57,MA,1674557070
476,bakchar,57.0186,82.0711,-11.78,95,100,2.78,RU,1674557071
477,zhezkazgan,47.8043,67.7144,-11.01,79,0,6.0,KZ,1674557073
478,gizel,43.04,44.5708,-1.88,80,100,1.0,RU,1674557074
479,laguna,38.421,-121.4238,5.52,90,0,0.45,US,1674557075
480,verkh-usugli,52.7,115.1667,-32.06,95,72,1.66,RU,1674557076
481,korla,41.7597,86.1469,-11.3,70,87,1.03,CN,1674557078
482,weiser,44.251,-116.9693,-5.89,87,19,1.11,US,1674557080
483,upington,-28.4478,21.2561,24.38,23,87,6.66,ZA,1674557084
484,qinzhou,21.95,108.6167,13.32,34,10,5.93,CN,1674557085
485,pundaguitan,6.3711,126.1689,26.03,86,100,7.6,PH,1674557086
486,port-gentil,-0.7193,8.7815,29.98,74,20,3.6,GA,1674557088
487,tougue,11.4667,-11.6,29.06,19,29,3.11,GN,1674557090
488,jaguarao,-32.5661,-53.3758,21.69,59,0,0.59,BR,1674557091
489,waipawa,-41.4122,175.5153,11.25,88,41,2.14,NZ,1674557093
490,madinat sittah uktubar,29.8167,31.05,20.78,39,0,7.17,EG,1674557094
491,kuldur,49.2167,131.6333,-31.96,99,98,1.88,RU,1674557095
492,chupa,66.27,33.0549,-2.6,90,41,3.9,RU,1674557097
493,atbasar,51.8,68.3333,-14.28,97,22,2.71,KZ,1674557098
494,prince george,53.9166,-122.753,-1.31,91,100,4.63,CA,1674556941
495,marsa matruh,31.3525,27.2453,17.78,62,0,5.3,EG,1674557101
496,swellendam,-34.0226,20.4417,18.17,67,37,5.79,ZA,1674557102
497,gambela,8.25,34.5833,39.25,14,95,2.42,ET,1674557103
498,angoche,-16.2325,39.9086,32.42,54,98,5.9,MZ,1674557105
499,yulara,-25.2406,130.9889,32.43,18,98,0.43,AU,1674557107
500,ongandjera,-17.8833,15.0667,25.13,56,100,3.82,NA,1674557108
501,qasigiannguit,68.8193,-51.1922,-4.86,77,100,2.78,GL,1674557111
502,toora-khem,52.4675,96.11,-19.55,99,100,0.2,RU,1674557112
503,ashland,40.8167,-82.2665,-1.68,93,68,5.71,US,1674557113
504,voh,-20.9667,164.7,25.51,90,10,1.42,NC,1674557115
505,basco,20.4487,121.9702,19.76,77,100,20.55,PH,1674557116
506,bowen,-20.0167,148.2333,25.83,81,10,5.21,AU,1674557117
507,tiznit,29.5833,-9.5,14.53,40,0,1.69,MA,1674557118
508,edson,53.5835,-116.4356,4.08,56,100,9.26,CA,1674557120
509,diu,20.7141,70.9822,24.46,33,13,1.65,IN,1674557121
510,uberlandia,-18.9186,-48.2772,20.56,94,100,3.6,BR,1674556909
511,pangnirtung,66.1451,-65.7125,-23.32,99,100,0.89,CA,1674557124
512,sedro-woolley,48.5039,-122.2361,6.64,86,100,0.0,US,1674557125
513,camargo,27.6667,-105.1667,8.52,46,0,10.83,MX,1674557126
514,tessalit,20.1986,1.0114,26.32,10,0,3.22,ML,1674556849
515,kalos agros,41.1,24.0833,8.66,83,100,0.28,GR,1674557128
516,abu dhabi,24.4667,54.3667,24.06,41,20,2.06,AE,1674557006
517,neiafu,-18.65,-173.9833,27.61,72,6,4.18,TO,1674557131
518,matagami,49.7502,-77.6328,-13.94,78,100,8.23,CA,1674557132
519,wau,7.7029,27.9953,36.77,10,25,2.97,SS,1674557134
520,havre-saint-pierre,50.2334,-63.5986,-7.0,62,0,4.63,CA,1674557135
521,miri,4.4148,114.0089,27.08,83,40,1.54,MY,1674557136
522,sao gabriel da cachoeira,-0.1303,-67.0892,21.07,99,89,0.41,BR,1674557138
523,ahipara,-35.1667,173.1667,17.78,91,100,3.58,NZ,1674557139
524,celestun,20.8667,-90.4,22.11,86,0,5.1,MX,1674557140
525,grindavik,63.8424,-22.4338,5.26,87,75,6.69,IS,1674557142
526,batemans bay,-35.7167,150.1833,21.17,95,100,1.8,AU,1674557143
527,pemangkat,1.1667,108.9667,25.52,88,99,6.8,ID,1674557080
528,darhan,49.4867,105.9228,-26.89,91,96,1.09,MN,1674557145
529,mareeba,-17.0,145.4333,24.4,91,82,1.58,AU,1674557147
530,trairi,-3.2778,-39.2689,26.29,78,99,1.24,BR,1674557027
531,chingirlau,51.095,54.0814,-9.64,92,13,1.54,KZ,1674556878
532,bilma,18.6853,12.9164,29.78,7,4,4.21,NE,1674557150
533,chulym,55.0997,80.9572,-10.1,94,100,5.08,RU,1674557151
534,cordoba,-31.4135,-64.1811,26.9,71,0,1.03,AR,1674557153
535,bodaybo,57.8506,114.1933,-38.88,99,95,0.63,RU,1674557154
536,timra,62.487,17.3257,-5.18,100,20,1.54,SE,1674557156
537,culaman,5.9603,125.6586,25.81,84,100,5.29,PH,1674557157
538,camacupa,-12.0167,17.4833,18.94,78,100,1.75,AO,1674557158
539,shubarkuduk,49.1447,56.4872,-9.07,92,10,1.97,KZ,1674557160
540,tarakan,3.3,117.6333,27.72,78,20,1.54,ID,1674557161
541,gillette,44.2911,-105.5022,-2.25,79,100,7.2,US,1674557148
542,queenstown,-31.8976,26.8753,33.85,19,11,7.27,ZA,1674557164
543,tsagan aman,47.5639,46.7218,0.82,53,4,3.78,RU,1674557165
544,mmathubudukwane,-24.6,26.4333,34.09,21,1,2.5,BW,1674557166
545,erenhot,43.6475,111.9767,-18.75,66,18,4.4,CN,1674557167
546,cape coast,5.1053,-1.2466,29.15,69,12,2.98,GH,1674557169
547,joshimath,30.5667,79.5667,7.53,97,100,3.14,IN,1674557170
548,toba,34.4833,136.85,1.0,68,63,20.65,JP,1674557173
549,paracuru,-3.41,-39.0306,26.17,77,100,1.57,BR,1674557174
550,zwedru,6.0667,-8.1281,27.73,69,86,1.58,LR,1674557175
551,sao joao do paraiso,-15.3136,-42.0144,22.94,83,87,1.78,BR,1674557177
552,skibbereen,51.55,-9.2667,7.84,95,100,2.31,IE,1674557178
